accountId,type,name,address,email,phone,website,lat,lng
"8af5f4ff-57be-e911-8107-0050569a458f","findacpa","Van Cotter Partners","L 4  29 Kiora Rd, MIRANDA NSW 2228, AUS","kcotter@vancotterpartners.com.au","+61428884172","http://www.vancotterpartners.com.au","-34.03312","151.10182"
"c3775aaa-1388-e011-87e1-005056b30007","findacpa","Sydney Accountants.com Pty Ltd","U 2  14-16 Central Rd, MIRANDA NSW 2228, AUS","guy@sydneyaccountants.com","+61295403866","http://www.sydneyaccountants.com/","-34.03341","151.10087"
"d288a235-2688-e011-87e1-005056b30007","findacpa","Andrew McKay CPA Pty Ltd","Se 2  94 Kiora Rd, MIRANDA NSW 2228, AUS","andrew@mckaycpa.com.au","+61295318441","http://www.mckaycpa.com.au","-34.03669","151.10198"
"07104cdc-1e88-e011-82c3-005056b3003f","findacpa","Cross Tax & Acc. Services","Shop 3  345 Kingsway, CARINGBAH NSW 2229, AUS","hsalib@crosstax.com.au","+61295241464","http://www.crosstax.com.au","-34.04181","151.12245"
"a44fd72e-2f88-e011-87e1-005056b30007","findacpa","Michael Faulkner & Associates","Se 10  1 Box Rd, CARINGBAH NSW 2229, AUS","michael@faulknerassociates.com.au","+61295243700","http://faulknerassociates.com.au","-34.02458","151.1267"
"f3bd92fd-0b2c-e511-a483-0050569a6f1c","findacpa","NGR Accounting Pty Ltd","Se 7  381 Port Hacking Rd, CARINGBAH NSW 2229, AUS","info@ngraccounting.com.au","+61290116669","http://www.ngraccounting.com.au","-34.04485","151.12296"
"654c81de-8817-e911-9461-0003ff4963c0","findacpa","Insolvency Options","Fy 205  17 Wurrook Cct, CARINGBAH NSW 2229, AUS","darren@iodebt.com.au","+61411170587","http://www.insolvencyoptions.com.au","-34.03058","151.129"
"fc1cdf27-1a88-e011-87e1-005056b30007","findacpa","Simon Wu & Co Pty  Ltd","PO Box 572, SANS SOUCI NSW 2219, AUS","simon@simonwu.com.au","+61292110228","http://www.simonwu.com.au","-33.99599","151.13126"
"30ad2e65-0ee0-e511-92c2-0050569a2c80","findacpa","SWM Partners Pty Ltd","U 2  12-14 Homedale Cres, CONNELLS POINT NSW 2221, AUS","wangyucong99@gmail.com","+61431587549",,"-33.98085","151.09922"